{"type":"FeatureCollection","features":[{"type":"Feature","geometry":{"type":"Point","coordinates":[-94.64755153020738,43.239497516062954]},"properties":{"progid":"60670","facName":"Daybreak Foods","CityName":"Graettinger","countyName":"Palo Alto","Chickens":33000}},{"type":"Feature","geometry":{"type":"Point","coordinates":[-95.1317627891631,42.82366858194348]},"properties":{"progid":"61129","facName":"Rembrandt Enterprises Inc (rembrandt)","CityName":"Rembrandt","countyName":"Buena Vista","Chickens":57467}},{"type":"Feature","geometry":{"type":"Point","coordinates":[-95.4472680634738,43.34870651561639]},"properties":{"progid":"61210","facName":"Sunrise Farms, Inc.","CityName":"Harris","countyName":"Osceola","Chickens":80000}},{"type":"Feature","geometry":{"type":"Point","coordinates":[-94.22902792880949,42.615775945430855]},"properties":{"progid":"62885","facName":"Sparboe Farms Inc (humboldt)","CityName":"Humboldt","countyName":"Webster","Chickens":13300}},{"type":"Feature","geometry":{"type":"Point","coordinates":[-95.15315264684301,42.88758972053926]},"properties":{"progid":"58646","facName":"Casey's General Store #2274","CityName":"Sioux Rapids","countyName":"Buena Vista","Chickens":2687}},{"type":"Feature","geometry":{"type":"Point","coordinates":[-93.58109569951458,42.04568423027884]},"properties":{"progid":"66011","facName":"Usda - National Animal Disease Center","CityName":"Ames","countyName":"Story","Chickens":19}},{"type":"Feature","geometry":{"type":"Point","coordinates":[-91.74953808543368,41.48108384668313]},"properties":{"progid":"63460","facName":"Riverland Poultry","CityName":"Kalona","countyName":"Washington","Chickens":347}},{"type":"Feature","geometry":{"type":"Point","coordinates":[-91.45771878594745,41.061669522498306]},"properties":{"progid":"63059","facName":"Venghaus Bros Inc. - Poultry","CityName":"","countyName":"Henry","Chickens":105}},{"type":"Feature","geometry":{"type":"Point","coordinates":[-96.58317974820935,42.78578015441008]},"properties":{"progid":"63194","facName":"Nelson Hatchery","CityName":"Akron","countyName":"Plymouth","Chickens":172}},{"type":"Feature","geometry":{"type":"Point","coordinates":[-96.19024561395355,43.20109532413212]},"properties":{"progid":"64194","facName":"Bakker Alan","CityName":"Hull","countyName":"Sioux","Chickens":1000}},{"type":"Feature","geometry":{"type":"Point","coordinates":[-96.27025125116462,43.1574522556563]},"properties":{"progid":"64460","facName":"Blom Evan","CityName":"Rock Valley","countyName":"Sioux","Chickens":1880}},{"type":"Feature","geometry":{"type":"Point","coordinates":[-95.26407233513174,42.96746361862211]},"properties":{"progid":"62202","facName":"Cp Poultry Farm #2","CityName":"Linn Grove","countyName":"Clay","Chickens":580}},{"type":"Feature","geometry":{"type":"Point","coordinates":[-91.86029100774007,42.96469951786313]},"properties":{"progid":"60846","facName":"Hillandale Iowa Ii Llp","CityName":"West Union","countyName":"Fayette","Chickens":22896}},{"type":"Feature","geometry":{"type":"Point","coordinates":[-94.5188586156877,40.99887239626333]},"properties":{"progid":"62786","facName":"Standley's Ridge View Farm","CityName":"Prescott","countyName":"Adams","Chickens":450}},{"type":"Feature","geometry":{"type":"Point","coordinates":[-93.72208592484263,43.41484842856442]},"properties":{"progid":"60786","facName":"Rembrandt Enterprises, Inc.","CityName":"Thompson","countyName":"Winnebago","Chickens":63760}},{"type":"Feature","geometry":{"type":"Point","coordinates":[-94.97179703454,41.397256425641736]},"properties":{"progid":"65578","facName":"Fred Kay Site #1","CityName":"Atlantic","countyName":"Cass","Chickens":900}},{"type":"Feature","geometry":{"type":"Point","coordinates":[-96.23553722460085,43.05547096499487]},"properties":{"progid":"60613","facName":"Center Fresh Egg Farm, Llp","CityName":"Sioux Center","countyName":"Sioux","Chickens":48864}},{"type":"Feature","geometry":{"type":"Point","coordinates":[-95.48670336998688,43.483923149035775]},"properties":{"progid":"65879","facName":"Sunrise Farms Inc P4","CityName":"Harris","countyName":"Osceola","Chickens":665}},{"type":"Feature","geometry":{"type":"Point","coordinates":[-95.99662811748748,42.487181755021524]},"properties":{"progid":"61326","facName":"Nelson Eric Site 2","CityName":"Moville","countyName":"Woodbury","Chickens":10}},{"type":"Feature","geometry":{"type":"Point","coordinates":[-93.82577822989695,42.78370655950911]},"properties":{"progid":"64473","facName":"Centurion Poultry Inc - Clarion Breeder","CityName":"Clarion","countyName":"Wright","Chickens":1576}},{"type":"Feature","geometry":{"type":"Point","coordinates":[-93.66892512320364,42.655600605217934]},"properties":{"progid":"62587","facName":"West Layer - Centrum Valley Farms","CityName":"Clarion","countyName":"Wright","Chickens":12320}},{"type":"Feature","geometry":{"type":"Point","coordinates":[-93.95197203122191,41.88145777199467]},"properties":{"progid":"63743","facName":"Jim & Robbin Frantum","CityName":"Woodward","countyName":"Boone","Chickens":94}},{"type":"Feature","geometry":{"type":"Point","coordinates":[-94.0692191999113,41.45556543841649]},"properties":{"progid":"63195","facName":"Karen & Paul Eilders","CityName":"Earlham","countyName":"Madison","Chickens":100}},{"type":"Feature","geometry":{"type":"Point","coordinates":[-93.56053999585765,42.62908432207227]},"properties":{"progid":"60961","facName":"Pullets 7 - Centrum Valley Farms","CityName":"Dows","countyName":"Wright","Chickens":750}},{"type":"Feature","geometry":{"type":"Point","coordinates":[-91.64653724650894,43.1700853578886]},"properties":{"progid":"63620","facName":"Lenth Farm #1 & #2","CityName":"Castalia","countyName":"Winneshiek","Chickens":999}},{"type":"Feature","geometry":{"type":"Point","coordinates":[-94.00967944059543,41.85475531688982]},"properties":{"progid":"63205","facName":"Doug Volz","CityName":"Bouton","countyName":"Dallas","Chickens":90}},{"type":"Feature","geometry":{"type":"Point","coordinates":[-93.43881621381264,42.32435145324352]},"properties":{"progid":"58879","facName":"Benson Egg Ltd","CityName":"Radcliffe","countyName":"Hardin","Chickens":2540}},{"type":"Feature","geometry":{"type":"Point","coordinates":[-93.9513633351778,41.76473458828148]},"properties":{"progid":"63760","facName":"Vern & Deanna Renshaw","CityName":"Minburn","countyName":"Dallas","Chickens":25}},{"type":"Feature","geometry":{"type":"Point","coordinates":[-94.3388003811643,41.04109958153034]},"properties":{"progid":"62717","facName":"Dunphy Poultry","CityName":"Creston","countyName":"Union","Chickens":420}},{"type":"Feature","geometry":{"type":"Point","coordinates":[-91.37687014253196,42.64537811659556]},"properties":{"progid":"63474","facName":"Kg Enterprises","CityName":"Edgewood","countyName":"Clayton","Chickens":270}},{"type":"Feature","geometry":{"type":"Point","coordinates":[-93.92390234942906,41.63069124763764]},"properties":{"progid":"63750","facName":"John & Michele Hooper","CityName":"Waukee","countyName":"Dallas","Chickens":94}},{"type":"Feature","geometry":{"type":"Point","coordinates":[-96.09143007528768,42.98348157737002]},"properties":{"progid":"59707","facName":"Fedders Poultry Farm","CityName":"Orange City","countyName":"Sioux","Chickens":1660}},{"type":"Feature","geometry":{"type":"Point","coordinates":[-95.70241754150047,43.254710305767226]},"properties":{"progid":"63401","facName":"Budden Dan","CityName":"Sanborn","countyName":"O'Brien","Chickens":337}},{"type":"Feature","geometry":{"type":"Point","coordinates":[-94.1628509992253,41.78445895024115]},"properties":{"progid":"63748","facName":"Scott & Jody Halling","CityName":"Perry","countyName":"Dallas","Chickens":149}},{"type":"Feature","geometry":{"type":"Point","coordinates":[-94.19316801836659,41.784003937410915]},"properties":{"progid":"63754","facName":"Rick & Lorrie Motsick","CityName":"Perry","countyName":"Dallas","Chickens":188}},{"type":"Feature","geometry":{"type":"Point","coordinates":[-93.92983382157557,41.66749138565111]},"properties":{"progid":"63744","facName":"Ben & Debbie Funk","CityName":"Dallas Center","countyName":"Dallas","Chickens":94}},{"type":"Feature","geometry":{"type":"Point","coordinates":[-94.06172936704267,41.60542484769001]},"properties":{"progid":"59597","facName":"Hy-vac Labs","CityName":"Adel","countyName":"Dallas","Chickens":1028}},{"type":"Feature","geometry":{"type":"Point","coordinates":[-91.6748633175758,41.49728924467791]},"properties":{"progid":"63104","facName":"Hillcrest (top) Hen House","CityName":"Kalona","countyName":"Washington","Chickens":71}},{"type":"Feature","geometry":{"type":"Point","coordinates":[-94.37406938474463,40.96465798522096]},"properties":{"progid":"62842","facName":"Routh Poultry","CityName":"Creston","countyName":"Union","Chickens":840}},{"type":"Feature","geometry":{"type":"Point","coordinates":[-93.81267798765687,43.049857609726295]},"properties":{"progid":"61470","facName":"New Horizon Cooperative","CityName":"Britt","countyName":"Hancock","Chickens":11095}},{"type":"Feature","geometry":{"type":"Point","coordinates":[-92.44464774927671,41.229904524594545]},"properties":{"progid":"62391","facName":"Fremont Farms Lc","CityName":"Washington","countyName":"Mahaska","Chickens":9000}},{"type":"Feature","geometry":{"type":"Point","coordinates":[-91.59762319596129,43.0780532831225]},"properties":{"progid":"65321","facName":"Hershey Site","CityName":"Postville","countyName":"Clayton","Chickens":999}},{"type":"Feature","geometry":{"type":"Point","coordinates":[-93.28727922443893,42.55851795087941]},"properties":{"progid":"58822","facName":"Ham And Eggs, L.l.c.","CityName":"Iowa Falls","countyName":"Franklin","Chickens":6500}},{"type":"Feature","geometry":{"type":"Point","coordinates":[-94.07785812475181,41.64433840741516]},"properties":{"progid":"63667","facName":"Meyers Triple M Farms","CityName":"Adel","countyName":"Dallas","Chickens":85}},{"type":"Feature","geometry":{"type":"Point","coordinates":[-94.34196927647079,43.0173557003395]},"properties":{"progid":"62356","facName":"Grimm Finisher","CityName":"West Bend","countyName":"Kossuth","Chickens":180}},{"type":"Feature","geometry":{"type":"Point","coordinates":[-95.88028702538885,43.07443575256893]},"properties":{"progid":"63088","facName":"Pohlen Pullets","CityName":"Hospers","countyName":"Sioux","Chickens":332}},{"type":"Feature","geometry":{"type":"Point","coordinates":[-96.2583755563194,43.01121581967268]},"properties":{"progid":"58624","facName":"Byl Daniel","CityName":"Maurice","countyName":"Sioux","Chickens":1800}},{"type":"Feature","geometry":{"type":"Point","coordinates":[-93.55995501163291,42.619604234839535]},"properties":{"progid":"60848","facName":"Pullets 8 - Centrum Valley Farms","CityName":"Dows","countyName":"Wright","Chickens":750}},{"type":"Feature","geometry":{"type":"Point","coordinates":[-94.13418942673864,41.746394411184546]},"properties":{"progid":"63752","facName":"Bob & Mary Kautzky","CityName":"Perry","countyName":"Dallas","Chickens":165}},{"type":"Feature","geometry":{"type":"Point","coordinates":[-92.8344033606369,43.25573662722106]},"properties":{"progid":"59175","facName":"Osage River City Egg","CityName":"Osage","countyName":"Mitchell","Chickens":2999}},{"type":"Feature","geometry":{"type":"Point","coordinates":[-91.68094274628467,41.16472444061349]},"properties":{"progid":"63093","facName":"Aaron Coakley Farm","CityName":"Wayland","countyName":"Washington","Chickens":28}},{"type":"Feature","geometry":{"type":"Point","coordinates":[-93.9639921663943,41.74041873527562]},"properties":{"progid":"63756","facName":"James & Sally Meyers","CityName":"Dallas Center","countyName":"Dallas","Chickens":94}},{"type":"Feature","geometry":{"type":"Point","coordinates":[-94.52377883521105,41.696367526666485]},"properties":{"progid":"61163","facName":"Rose Acre Farms (guthrie Center Egg Farm)","CityName":"Guthrie Center","countyName":"Guthrie","Chickens":60000}},{"type":"Feature","geometry":{"type":"Point","coordinates":[-95.24980041456126,42.89041286935053]},"properties":{"progid":"63334","facName":"Rembrandt Enterprises Inc. - Cage Free Town","CityName":"Linn Grove","countyName":"Buena Vista","Chickens":250}},{"type":"Feature","geometry":{"type":"Point","coordinates":[-96.01085670830243,43.20177486283449]},"properties":{"progid":"62405","facName":"Mobo Farms Inc","CityName":"Boyden","countyName":"Sioux","Chickens":2000}},{"type":"Feature","geometry":{"type":"Point","coordinates":[-94.51508192747919,40.90084442942865]},"properties":{"progid":"62667","facName":"Mike Standley","CityName":"Lenox","countyName":"Adams","Chickens":840}},{"type":"Feature","geometry":{"type":"Point","coordinates":[-95.6430195620246,43.242836045935995]},"properties":{"progid":"58824","facName":"Verhoef Farm","CityName":"Sanborn","countyName":"O'Brien","Chickens":800}},{"type":"Feature","geometry":{"type":"Point","coordinates":[-91.54626038363585,43.07404441722662]},"properties":{"progid":"63924","facName":"Trappe Site 5 #1 & # 2","CityName":"Postville","countyName":"Clayton","Chickens":999}},{"type":"Feature","geometry":{"type":"Point","coordinates":[-95.27860106205657,42.96875999294952]},"properties":{"progid":"58471","facName":"Cp Poultry Farm #1","CityName":"Linn Grove","countyName":"Clay","Chickens":580}},{"type":"Feature","geometry":{"type":"Point","coordinates":[-94.0596280822615,41.33326130151158]},"properties":{"progid":"59373","facName":"Winterset Egg Farm","CityName":"Winterset","countyName":"Madison","Chickens":13828}},{"type":"Feature","geometry":{"type":"Point","coordinates":[-95.63807901088795,43.18457628440724]},"properties":{"progid":"59687","facName":"Postma Otto","CityName":"Sanborn","countyName":"O'Brien","Chickens":840}},{"type":"Feature","geometry":{"type":"Point","coordinates":[-95.24821905262633,42.901825936512374]},"properties":{"progid":"63298","facName":"Rembrandt Enterprises Inc - Cage Free North","CityName":"Linn Grove","countyName":"Buena Vista","Chickens":990}},{"type":"Feature","geometry":{"type":"Point","coordinates":[-95.24821905262633,42.901825936512374]},"properties":{"progid":"63321","facName":"Rembrandt Enterprises Inc - Cage Free North","CityName":"Linn Grove","countyName":"Buena Vista","Chickens":250}},{"type":"Feature","geometry":{"type":"Point","coordinates":[-93.27995131495416,42.782739581789855]},"properties":{"progid":"62582","facName":"Centrum Valley Farms Pullets 1","CityName":"Hampton","countyName":"Franklin","Chickens":750}},{"type":"Feature","geometry":{"type":"Point","coordinates":[-93.60476702735971,42.60324730508653]},"properties":{"progid":"61185","facName":"Centrum Valley Farms, Llp","CityName":"Dows","countyName":"Wright","Chickens":18000}},{"type":"Feature","geometry":{"type":"Point","coordinates":[-95.00089906157936,42.41350163711878]},"properties":{"progid":"60767","facName":"Fremont Farms Of Iowa, Llp","CityName":"Malcom","countyName":"Poweshiek","Chickens":76300}},{"type":"Feature","geometry":{"type":"Point","coordinates":[-91.32643036405655,43.34004104813794]},"properties":{"progid":"63082","facName":"Welsh Family Organic Farm","CityName":"Lansing","countyName":"Allamakee","Chickens":200}},{"type":"Feature","geometry":{"type":"Point","coordinates":[-94.6288789403475,42.63326534235786]},"properties":{"progid":"58877","facName":"Lenz Poultry Inc.","CityName":"Palmer","countyName":"Pocahontas","Chickens":1900}},{"type":"Feature","geometry":{"type":"Point","coordinates":[-91.57521925062599,43.033950075600714]},"properties":{"progid":"64995","facName":"Cottonballs Site 7 - Larrabee Farm","CityName":"Postville","countyName":"Clayton","Chickens":999}},{"type":"Feature","geometry":{"type":"Point","coordinates":[-94.30189520744648,42.83495336867126]},"properties":{"progid":"62732","facName":"M & K Olson","CityName":"Bode","countyName":"Humboldt","Chickens":1008}},{"type":"Feature","geometry":{"type":"Point","coordinates":[-96.01780905653646,43.27379405934637]},"properties":{"progid":"64175","facName":"Van Essen Orlin Egg Farm","CityName":"George","countyName":"Lyon","Chickens":3800}},{"type":"Feature","geometry":{"type":"Point","coordinates":[-94.49077283363104,40.808459728670584]},"properties":{"progid":"58637","facName":"Sunbest Foods Of Iowa","CityName":"Clearfield","countyName":"Taylor","Chickens":15000}},{"type":"Feature","geometry":{"type":"Point","coordinates":[-91.84001547747509,43.292296295904265]},"properties":{"progid":"59560","facName":"Quandahl Poultry","CityName":"Decorah","countyName":"Winneshiek","Chickens":1800}},{"type":"Feature","geometry":{"type":"Point","coordinates":[-95.92254540338183,43.14116457271057]},"properties":{"progid":"63923","facName":"Mouw's Egg Ranch","CityName":"Sheldon","countyName":"Sioux","Chickens":5800}},{"type":"Feature","geometry":{"type":"Point","coordinates":[-95.18893664151165,42.971005901082606]},"properties":{"progid":"62861","facName":"Northwest Iowa Pullets","CityName":"Sioux Rapids","countyName":"Clay","Chickens":675}},{"type":"Feature","geometry":{"type":"Point","coordinates":[-93.42142340798308,42.498457612481104]},"properties":{"progid":"59162","facName":"Alden - Centrum Valley Farms","CityName":"Alden","countyName":"Hardin","Chickens":9846}},{"type":"Feature","geometry":{"type":"Point","coordinates":[-95.74168452032504,43.1073139202487]},"properties":{"progid":"62516","facName":"Archer Co-op Layer Facility","CityName":"Archer","countyName":"O'Brien","Chickens":2500}},{"type":"Feature","geometry":{"type":"Point","coordinates":[-92.58432412069929,41.68533577543719]},"properties":{"progid":"62389","facName":"Poweshiek County Pullets Llp (sec 3)","CityName":"Malcom","countyName":"Poweshiek","Chickens":5703}},{"type":"Feature","geometry":{"type":"Point","coordinates":[-91.70588213335793,41.537526131596316]},"properties":{"progid":"63076","facName":"Amos T Miller (safo)","CityName":"Kalona","countyName":"Johnson","Chickens":15}},{"type":"Feature","geometry":{"type":"Point","coordinates":[-95.44709431040715,43.26174851833571]},"properties":{"progid":"62344","facName":"Sunrise Farms Inc Pullet #3","CityName":"Harris","countyName":"Osceola","Chickens":650}},{"type":"Feature","geometry":{"type":"Point","coordinates":[-96.51038136920127,42.72975394955443]},"properties":{"progid":"57408","facName":"Loutsch Ronald","CityName":"Westfield","countyName":"Plymouth","Chickens":2}},{"type":"Feature","geometry":{"type":"Point","coordinates":[-94.49445230947546,40.673739737413094]},"properties":{"progid":"65390","facName":"Jennett Farms #2","CityName":"Bedford","countyName":"Taylor","Chickens":840}},{"type":"Feature","geometry":{"type":"Point","coordinates":[-91.6381776556913,43.174794630024344]},"properties":{"progid":"64861","facName":"Barker Farm (formerly Cottonballs Site 2)","CityName":"Castalia","countyName":"Winneshiek","Chickens":499}},{"type":"Feature","geometry":{"type":"Point","coordinates":[-96.25307840677858,43.099452828075314]},"properties":{"progid":"61264","facName":"Sioux County Egg Farm Llp","CityName":"Sioux Center","countyName":"Sioux","Chickens":17000}},{"type":"Feature","geometry":{"type":"Point","coordinates":[-95.34937479070075,42.98933569627172]},"properties":{"progid":"59559","facName":"Mou Van Eggs Llc","CityName":"Peterson","countyName":"Clay","Chickens":2500}},{"type":"Feature","geometry":{"type":"Point","coordinates":[-91.77892943040449,41.49966629211293]},"properties":{"progid":"63102","facName":"Ervin Miller","CityName":"Kalona","countyName":"Washington","Chickens":105}},{"type":"Feature","geometry":{"type":"Point","coordinates":[-95.05543523247722,42.855987560038166]},"properties":{"progid":"63379","facName":"Oakdale Pullets","CityName":"Sioux Rapids","countyName":"Buena Vista","Chickens":625}},{"type":"Feature","geometry":{"type":"Point","coordinates":[-91.34495512745758,43.20155239760484]},"properties":{"progid":"63327","facName":"Jerry Ewing","CityName":"Waterville","countyName":"Allamakee","Chickens":240}},{"type":"Feature","geometry":{"type":"Point","coordinates":[-95.21221034024643,43.09022001554341]},"properties":{"progid":"65910","facName":"Daybreak Foods -spencer Pullet Farm","CityName":"Spencer","countyName":"Clay","Chickens":1637}},{"type":"Feature","geometry":{"type":"Point","coordinates":[-95.7861789535873,43.23782469286509]},"properties":{"progid":"64331","facName":"Tim Kamstra","CityName":"Sheldon","countyName":"O'Brien","Chickens":920}},{"type":"Feature","geometry":{"type":"Point","coordinates":[-95.21216319166841,43.040092732881014]},"properties":{"progid":"62874","facName":"Mugge Mugge Farm & Poultry","CityName":"Greenville","countyName":"Clay","Chickens":600}},{"type":"Feature","geometry":{"type":"Point","coordinates":[-93.33885477150316,42.82533802650968]},"properties":{"progid":"62584","facName":"Centrum Valley Farms Pullets 3","CityName":"Latimer","countyName":"Franklin","Chickens":750}},{"type":"Feature","geometry":{"type":"Point","coordinates":[-92.06648818153776,42.278603264031354]},"properties":{"progid":"59717","facName":"Cedar Valley Egg Farm Llp","CityName":"","countyName":"Benton","Chickens":4000}},{"type":"Feature","geometry":{"type":"Point","coordinates":[-94.0629895814189,41.772573682240605]},"properties":{"progid":"59763","facName":"Hy-line International - Minburn Ggp","CityName":"Minburn","countyName":"Dallas","Chickens":499}},{"type":"Feature","geometry":{"type":"Point","coordinates":[-95.97788959291285,43.17964225984647]},"properties":{"progid":"63193","facName":"Doorenbos Poultry","CityName":"Boyden","countyName":"Sioux","Chickens":2200}},{"type":"Feature","geometry":{"type":"Point","coordinates":[-93.90878358508866,42.60485040170977]},"properties":{"progid":"58876","facName":"Sparboe Eagle Pullet Farm","CityName":"Eagle Grove","countyName":"Wright","Chickens":1125}},{"type":"Feature","geometry":{"type":"Point","coordinates":[-94.75847325978121,41.34891558168251]},"properties":{"progid":"63160","facName":"Southwest Ia Egg Coop Site #2- (frmly P&w Egg)","CityName":"Anita","countyName":"Cass","Chickens":2000}},{"type":"Feature","geometry":{"type":"Point","coordinates":[-95.23493224641938,42.878511783169145]},"properties":{"progid":"59673","facName":"Haroldson Farms Inc","CityName":"Linn Grove","countyName":"Buena Vista","Chickens":2050}},{"type":"Feature","geometry":{"type":"Point","coordinates":[-93.43742231417737,42.80244547229062]},"properties":{"progid":"62583","facName":"Centrum Valley Farms Pullets 2","CityName":"Alexander","countyName":"Franklin","Chickens":750}},{"type":"Feature","geometry":{"type":"Point","coordinates":[-94.30156497939434,42.86643012067267]},"properties":{"progid":"62745","facName":"T.j. Agrifactory","CityName":"Bode","countyName":"Humboldt","Chickens":1200}},{"type":"Feature","geometry":{"type":"Point","coordinates":[-93.63978037547201,42.703451479904025]},"properties":{"progid":"62588","facName":"North Layer - Centrum Valley Farms","CityName":"Clarion","countyName":"Wright","Chickens":15840}},{"type":"Feature","geometry":{"type":"Point","coordinates":[-96.05721734988279,43.14158613259818]},"properties":{"progid":"59497","facName":"Vander Waal Jonathan","CityName":"Boyden","countyName":"Sioux","Chickens":995}},{"type":"Feature","geometry":{"type":"Point","coordinates":[-93.75286816711373,42.84962377018489]},"properties":{"progid":"62585","facName":"Centrum Valley Farms Pullets 6","CityName":"Kanawha","countyName":"Wright","Chickens":750}},{"type":"Feature","geometry":{"type":"Point","coordinates":[-92.7463221636126,41.60815632367218]},"properties":{"progid":"63666","facName":"Ken Hoksbergen","CityName":"Grinnell","countyName":"Poweshiek","Chickens":220}},{"type":"Feature","geometry":{"type":"Point","coordinates":[-95.43233455018336,42.71332745036953]},"properties":{"progid":"59735","facName":"Country Nest Corp.","CityName":"Aurelia","countyName":"Cherokee","Chickens":2200}},{"type":"Feature","geometry":{"type":"Point","coordinates":[-95.00914027374368,40.926378377309206]},"properties":{"progid":"58638","facName":"Sunbest Papetti Farm","CityName":"La Porte City","countyName":"Montgomery","Chickens":15052}},{"type":"Feature","geometry":{"type":"Point","coordinates":[-93.62896403980426,42.669749609106894]},"properties":{"progid":"62586","facName":"Centrum Valley East Layer","CityName":"Galt","countyName":"Wright","Chickens":12320}},{"type":"Feature","geometry":{"type":"Point","coordinates":[-96.2739145586406,42.97739387468786]},"properties":{"progid":"66089","facName":"Sioux Center Pullets Llp (gradert Ii Pullet Site)","CityName":"Ireton","countyName":"Sioux","Chickens":800}},{"type":"Feature","geometry":{"type":"Point","coordinates":[-96.12565741608816,42.73642767016128]},"properties":{"progid":"66082","facName":"Sioux Center Pullets Llp (langel Site)","CityName":"Le Mars","countyName":"Plymouth","Chickens":800}},{"type":"Feature","geometry":{"type":"Point","coordinates":[-96.2739145586406,42.97739387468786]},"properties":{"progid":"66088","facName":"Sioux Center Pullets Llp (gradert I Pullet Site)","CityName":"Sioux Center","countyName":"Sioux","Chickens":800}},{"type":"Feature","geometry":{"type":"Point","coordinates":[-96.15233621747731,43.20082364639883]},"properties":{"progid":"63370","facName":"G & T Eggs","CityName":"Hull","countyName":"Sioux","Chickens":245}},{"type":"Feature","geometry":{"type":"Point","coordinates":[-96.38890107021926,42.966894317074235]},"properties":{"progid":"66081","facName":"Sioux Center Pullet Llp (rehder Site)","CityName":"Ireton","countyName":"Sioux","Chickens":800}},{"type":"Feature","geometry":{"type":"Point","coordinates":[-95.15039156160398,42.93426828772294]},"properties":{"progid":"58666","facName":"Iowa Quality Pullets","CityName":"Sioux Rapids","countyName":"Clay","Chickens":937}},{"type":"Feature","geometry":{"type":"Point","coordinates":[-94.55275678663416,40.94012206685821]},"properties":{"progid":"61940","facName":"Joe Maynes Jr.","CityName":"Lenox","countyName":"Adams","Chickens":900}},{"type":"Feature","geometry":{"type":"Point","coordinates":[-94.0164598641064,41.67399052222376]},"properties":{"progid":"63805","facName":"Dallas Center Pullet Farm","CityName":"Dallas Center","countyName":"Dallas","Chickens":105}},{"type":"Feature","geometry":{"type":"Point","coordinates":[-93.35898819701804,42.74426393683426]},"properties":{"progid":"58875","facName":"Coulter Pullet Farm","CityName":"Latimer","countyName":"Franklin","Chickens":1812}},{"type":"Feature","geometry":{"type":"Point","coordinates":[-94.3771164686464,41.49757023412907]},"properties":{"progid":"61165","facName":"Rose Acre Farms Inc. (stuart Egg Farm)","CityName":"Stuart","countyName":"Adair","Chickens":15260}},{"type":"Feature","geometry":{"type":"Point","coordinates":[-94.35026626311183,41.00018722835471]},"properties":{"progid":"62612","facName":"William A Ehm","CityName":"Creston","countyName":"Union","Chickens":880}},{"type":"Feature","geometry":{"type":"Point","coordinates":[-93.90591720113957,41.71628428468274]},"properties":{"progid":"63747","facName":"Phil & Nancy Funk","CityName":"Dallas Center","countyName":"Dallas","Chickens":90}},{"type":"Feature","geometry":{"type":"Point","coordinates":[-94.04942232326121,42.00849316542868]},"properties":{"progid":"58878","facName":"T & C Poultry","CityName":"Ogden","countyName":"Boone","Chickens":1200}},{"type":"Feature","geometry":{"type":"Point","coordinates":[-94.11542500703649,41.7761115799323]},"properties":{"progid":"63761","facName":"John Splendore","CityName":"Perry","countyName":"Dallas","Chickens":94}},{"type":"Feature","geometry":{"type":"Point","coordinates":[-96.01800174664142,43.16172573392734]},"properties":{"progid":"62404","facName":"Bkt Poultry Inc","CityName":"Boyden","countyName":"Sioux","Chickens":1980}},{"type":"Feature","geometry":{"type":"Point","coordinates":[-92.67003835883777,43.16994357712328]},"properties":{"progid":"63700","facName":"Quade Poultry","CityName":"Charles City","countyName":"Floyd","Chickens":240}},{"type":"Feature","geometry":{"type":"Point","coordinates":[-94.80433779130745,43.36203064979698]},"properties":{"progid":"58698","facName":"Oakridge Farm","CityName":"Estherville","countyName":"Emmet","Chickens":21300}},{"type":"Feature","geometry":{"type":"Point","coordinates":[-96.29006082721334,42.991336902228284]},"properties":{"progid":"66087","facName":"Sioux Center Pullets Llp (eisma Pullet Site)","CityName":"Ireton","countyName":"Sioux","Chickens":800}},{"type":"Feature","geometry":{"type":"Point","coordinates":[-96.40828797606467,42.847032259524156]},"properties":{"progid":"66141","facName":"Sioux Center Pullets Llp (langel Ii Pullet Site)","CityName":"Akron","countyName":"Plymouth","Chickens":800}},{"type":"Feature","geometry":{"type":"Point","coordinates":[-92.0991230231454,41.45473719473551]},"properties":{"progid":"63091","facName":"Sam Schwartz Farm","CityName":"Webster","countyName":"Keokuk","Chickens":160}},{"type":"Feature","geometry":{"type":"Point","coordinates":[-95.24735916222745,42.711309067354115]},"properties":{"progid":"67985","facName":"Hillshire Brands Research Farm","CityName":"Storm Lake","countyName":"Buena Vista","Chickens":19}},{"type":"Feature","geometry":{"type":"Point","coordinates":[-93.94910569407746,41.615417004099456]},"properties":{"progid":"63741","facName":"Dave & Jennifer Felt","CityName":"Adel","countyName":"Dallas","Chickens":47}},{"type":"Feature","geometry":{"type":"Point","coordinates":[-96.16624393540245,43.09801023968917]},"properties":{"progid":"64669","facName":"Boonstra Farms Inc.","CityName":"Sioux Center","countyName":"Sioux","Chickens":806}},{"type":"Feature","geometry":{"type":"Point","coordinates":[-95.83066450044386,43.14102730801628]},"properties":{"progid":"62729","facName":"Verburg Bradley","CityName":"Sheldon","countyName":"O'Brien","Chickens":900}},{"type":"Feature","geometry":{"type":"Point","coordinates":[-94.36176441861454,42.630061506077155]},"properties":{"progid":"62886","facName":"Clare Pullet Farm","CityName":"Clare","countyName":"Webster","Chickens":1031}},{"type":"Feature","geometry":{"type":"Point","coordinates":[-91.55061888914187,42.98755419173932]},"properties":{"progid":"64860","facName":"Cottonballs Site 9 - Gunder Farm","CityName":"Postville","countyName":"Clayton","Chickens":999}},{"type":"Feature","geometry":{"type":"Point","coordinates":[-94.50162632725407,40.70870676553796]},"properties":{"progid":"60932","facName":"Jennett Farms -dr. Kenneth Jennett","CityName":"Bedford","countyName":"Taylor","Chickens":8800}},{"type":"Feature","geometry":{"type":"Point","coordinates":[-94.7420108673623,41.2028881114127]},"properties":{"progid":"61192","facName":"Southwest Iowa Egg","CityName":"Massena","countyName":"Cass","Chickens":1532}},{"type":"Feature","geometry":{"type":"Point","coordinates":[-95.08332809655444,43.098880220315046]},"properties":{"progid":"62863","facName":"Rembrandt Enterprises Inc - Spencer Cage Free","CityName":"Spencer","countyName":"Clay","Chickens":960}},{"type":"Feature","geometry":{"type":"Point","coordinates":[-95.85959454864505,43.12780062091875]},"properties":{"progid":"63994","facName":"B & D Poultry","CityName":"Sheldon","countyName":"O'Brien","Chickens":950}},{"type":"Feature","geometry":{"type":"Point","coordinates":[-95.1755418066624,42.84379909744887]},"properties":{"progid":"62252","facName":"Rembrandt Enterprises Inc - Pullet Site","CityName":"Rembrandt","countyName":"Buena Vista","Chickens":2350}},{"type":"Feature","geometry":{"type":"Point","coordinates":[-94.13597594954813,41.68738150812793]},"properties":{"progid":"63759","facName":"Fred & Diane Pifer","CityName":"Adel","countyName":"Dallas","Chickens":60}},{"type":"Feature","geometry":{"type":"Point","coordinates":[-95.79628929997237,43.2230092579569]},"properties":{"progid":"66152","facName":"Sioux Center Pullets Llp (hengeveld Pullet Site)","CityName":"Sheldon","countyName":"O'Brien","Chickens":800}},{"type":"Feature","geometry":{"type":"Point","coordinates":[-94.15910690023232,41.59629677468695]},"properties":{"progid":"66185","facName":"Hy-vac - Redfield Site","CityName":"Redfield","countyName":"Dallas","Chickens":491}},{"type":"Feature","geometry":{"type":"Point","coordinates":[-93.96568892512981,42.76948234547789]},"properties":{"progid":"66175","facName":"Iowa Cage Free","CityName":"Goldfield","countyName":"Wright","Chickens":14400}},{"type":"Feature","geometry":{"type":"Point","coordinates":[-93.83304350429911,41.79252106696476]},"properties":{"progid":"66249","facName":"Bob Keller","CityName":"Granger","countyName":"Dallas","Chickens":790}},{"type":"Feature","geometry":{"type":"Point","coordinates":[-94.01911813422853,41.68562204508867]},"properties":{"progid":"58667","facName":"Hy-line Int'l/research Farm - Dallas Center","CityName":"Dallas Center","countyName":"Dallas","Chickens":625}},{"type":"Feature","geometry":{"type":"Point","coordinates":[-91.66135747733483,41.544573324223755]},"properties":{"progid":"66304","facName":"Perry Yoder","CityName":"Kalona","countyName":"Johnson","Chickens":80}},{"type":"Feature","geometry":{"type":"Point","coordinates":[-95.68807227003447,43.334554068069245]},"properties":{"progid":"66453","facName":"Sunrise Farms Inc P5","CityName":"Sibley","countyName":"Osceola","Chickens":650}},{"type":"Feature","geometry":{"type":"Point","coordinates":[-93.59121065575223,42.92580234666226]},"properties":{"progid":"61195","facName":"Sparboe Farms (goodell)","CityName":"Goodell","countyName":"Hancock","Chickens":10882}},{"type":"Feature","geometry":{"type":"Point","coordinates":[-93.93678804489481,42.59198994529313]},"properties":{"progid":"61193","facName":"Daybreak Foods (eagle Grove)","CityName":"Eagle Grove","countyName":"Wright","Chickens":48337}},{"type":"Feature","geometry":{"type":"Point","coordinates":[-93.91363222431585,42.94886136615907]},"properties":{"progid":"66173","facName":"Hawkeye Pride Egg Farms, L.l.p.","CityName":"Corwith","countyName":"Hancock","Chickens":67848}},{"type":"Feature","geometry":{"type":"Point","coordinates":[-96.06417194203449,43.298194355809265]},"properties":{"progid":"66299","facName":"Sioux Center Pullets Llp Tiedeman (hawkeye)","CityName":"George","countyName":"Lyon","Chickens":800}},{"type":"Feature","geometry":{"type":"Point","coordinates":[-93.64181380846831,42.65546753200686]},"properties":{"progid":"66939","facName":"Centrum Valley Farms South Layer","CityName":"Clarion","countyName":"Wright","Chickens":12320}},{"type":"Feature","geometry":{"type":"Point","coordinates":[-94.4774618453576,43.36721692588333]},"properties":{"progid":"66924","facName":"Miller Ryan","CityName":"Armstrong","countyName":"Emmet","Chickens":492}},{"type":"Feature","geometry":{"type":"Point","coordinates":[-95.92668529333216,43.2614874606177]},"properties":{"progid":"67278","facName":"Getting Greg","CityName":"Sheldon","countyName":"Lyon","Chickens":500}},{"type":"Feature","geometry":{"type":"Point","coordinates":[-94.0622340461421,42.1338434182845]},"properties":{"progid":"67400","facName":"Nathan & Kathryn Venard","CityName":"Ogden","countyName":"Boone","Chickens":60}},{"type":"Feature","geometry":{"type":"Point","coordinates":[-94.11415520326287,41.1243632461865]},"properties":{"progid":"67337","facName":"Duane Hackett","CityName":"Lorimor","countyName":"Union","Chickens":200}},{"type":"Feature","geometry":{"type":"Point","coordinates":[-96.03559620813208,43.1700297571138]},"properties":{"progid":"58061","facName":"Caleko Farm Inc","CityName":"Boyden","countyName":"Sioux","Chickens":920}},{"type":"Feature","geometry":{"type":"Point","coordinates":[-94.11415520326287,41.1243632461865]},"properties":{"progid":"67280","facName":"Leonard Headings","CityName":"Lorimor","countyName":"Union","Chickens":200}},{"type":"Feature","geometry":{"type":"Point","coordinates":[-94.37233788745571,40.67086895730704]},"properties":{"progid":"66557","facName":"Wendell Jackson Poultry","CityName":"Redding","countyName":"Ringgold","Chickens":800}},{"type":"Feature","geometry":{"type":"Point","coordinates":[-94.31353208925,41.14697041499457]},"properties":{"progid":"67952","facName":"Maynard Hostetler","CityName":"Creston","countyName":"Union","Chickens":200}},{"type":"Feature","geometry":{"type":"Point","coordinates":[-94.18008155638026,41.1391370486063]},"properties":{"progid":"67916","facName":"Scott Kropf","CityName":"Afton","countyName":"Union","Chickens":200}},{"type":"Feature","geometry":{"type":"Point","coordinates":[-93.27658293881119,42.654824248697665]},"properties":{"progid":"67800","facName":"The Good Eggs Llc","CityName":"Hampton","countyName":"Franklin","Chickens":12000}},{"type":"Feature","geometry":{"type":"Point","coordinates":[-93.56285802884071,42.706277798516055]},"properties":{"progid":"67700","facName":"Centrum Valley Farms Pullets 5","CityName":"Dows","countyName":"Wright","Chickens":750}},{"type":"Feature","geometry":{"type":"Point","coordinates":[-93.56285802884071,42.706277798516055]},"properties":{"progid":"67699","facName":"Centrum Valley Farms Pullets 4","CityName":"Dows","countyName":"Wright","Chickens":750}},{"type":"Feature","geometry":{"type":"Point","coordinates":[-93.9359418108583,41.81694793927779]},"properties":{"progid":"67995","facName":"Hy-line Woodward Research Farm","CityName":"Woodward","countyName":"Dallas","Chickens":300}}]}