{"type":"FeatureCollection","features":[{"type":"Feature","geometry":{"type":"Point","coordinates":[-94.455219,41.412294]},"properties":{"Name":"Adair County Transfer Station","County":"Adair","Type":"Transfer Station","TonsFY2013":4454.84}},{"type":"Feature","geometry":{"type":"Point","coordinates":[-92.85134,40.71978]},"properties":{"Name":"Appanoose, Rathbun Area Solid Waste Comm Transfer Station","County":"Appanoose","Type":"Transfer Station","TonsFY2013":9041.04}},{"type":"Feature","geometry":{"type":"Point","coordinates":[-92.09667,41.875549]},"properties":{"Name":"Benton County Sanitary Landfill","County":"Benton","Type":"Municipal Landfill","TonsFY2013":12931.75}},{"type":"Feature","geometry":{"type":"Point","coordinates":[-92.32658,42.41457]},"properties":{"Name":"Black Hawk County Sanitary Landfill","County":"Black Hawk","Type":"Municipal Landfill","TonsFY2013":149071.23}},{"type":"Feature","geometry":{"type":"Point","coordinates":[-93.91797,42.027069]},"properties":{"Name":"Boone County Sanitary Landfill","County":"Boone","Type":"Municipal Landfill","TonsFY2013":53430.05}},{"type":"Feature","geometry":{"type":"Point","coordinates":[-94.16279,41.865799]},"properties":{"Name":"Metro Park West","County":"Dallas","Type":"Municipal Landfill","TonsFY2013":20874.26}},{"type":"Feature","geometry":{"type":"Point","coordinates":[-95.158645,42.605713]},"properties":{"Name":"Buena Vista County Transfer Station","County":"Buena Vista","Type":"Transfer Station","TonsFY2013":13702.13}},{"type":"Feature","geometry":{"type":"Point","coordinates":[-94.90601,42.07127]},"properties":{"Name":"Carroll County Sanitary Landfill/Recycling","County":"Carroll","Type":"Municipal Landfill","TonsFY2013":22775.42}},{"type":"Feature","geometry":{"type":"Point","coordinates":[-94.92792,41.3758]},"properties":{"Name":"Cass County Sanitary Landfill","County":"Cass","Type":"Municipal Landfill","TonsFY2013":8613.78}},{"type":"Feature","geometry":{"type":"Point","coordinates":[-93.30042,43.12565]},"properties":{"Name":"Landfill of North Iowa","County":"Cerro Gordo","Type":"Municipal Landfill","TonsFY2013":64884.46}},{"type":"Feature","geometry":{"type":"Point","coordinates":[-95.521628,42.73987]},"properties":{"Name":"Cherokee County Sanitary Landfill","County":"Cherokee","Type":"Municipal Landfill","TonsFY2013":17947.48}},{"type":"Feature","geometry":{"type":"Point","coordinates":[-90.263421,41.866686]},"properties":{"Name":"Clinton County Sanitary Landfill-East","County":"Clinton","Type":"Municipal Landfill","TonsFY2013":31318.52}},{"type":"Feature","geometry":{"type":"Point","coordinates":[-94.036124,41.621891]},"properties":{"Name":"South Dallas County Sanitary Landfill","County":"Dallas","Type":"Municipal Landfill","TonsFY2013":16523.93}},{"type":"Feature","geometry":{"type":"Point","coordinates":[-93.96196,40.734779]},"properties":{"Name":"Wayne-Ringgold-Decatur County Sanitary Landfill","County":"Decatur","Type":"Municipal Landfill","TonsFY2013":9498.06}},{"type":"Feature","geometry":{"type":"Point","coordinates":[-91.195137,40.848708]},"properties":{"Name":"Des Moines County Sanitary Landfill","County":"Des Moines","Type":"Municipal Landfill","TonsFY2013":50962.55}},{"type":"Feature","geometry":{"type":"Point","coordinates":[-95.0803,43.36911]},"properties":{"Name":"Dickinson Sanitary Landfill","County":"Dickinson","Type":"Municipal Landfill","TonsFY2013":35011.46}},{"type":"Feature","geometry":{"type":"Point","coordinates":[-90.77689,42.46534]},"properties":{"Name":"Dubuque Metropolitan Sanitary Landfill","County":"Dubuque","Type":"Municipal Landfill","TonsFY2013":95219.64}},{"type":"Feature","geometry":{"type":"Point","coordinates":[-95.64194,40.690529]},"properties":{"Name":"Fremont County Sanitary Landfill","County":"Fremont","Type":"Municipal Landfill","TonsFY2013":4833.42}},{"type":"Feature","geometry":{"type":"Point","coordinates":[-93.25077,42.40496]},"properties":{"Name":"Rural Iowa Sanitary Landfill","County":"Hardin","Type":"Municipal Landfill","TonsFY2013":21359.91}},{"type":"Feature","geometry":{"type":"Point","coordinates":[-95.777724,41.64373]},"properties":{"Name":"Harrison County Sanitary Landfill","County":"Harrison","Type":"Municipal Landfill","TonsFY2013":10883.15}},{"type":"Feature","geometry":{"type":"Point","coordinates":[-91.83352,41.761841]},"properties":{"Name":"Iowa County Sanitary Landfill","County":"Iowa","Type":"Municipal Landfill","TonsFY2013":10353.64}},{"type":"Feature","geometry":{"type":"Point","coordinates":[-93.07394,41.670101]},"properties":{"Name":"City of Newton Sanitary Landfill","County":"Jasper","Type":"Municipal Landfill","TonsFY2013":29456.42}},{"type":"Feature","geometry":{"type":"Point","coordinates":[-91.6231,41.64679]},"properties":{"Name":"City of Iowa City Sanitary Landfill","County":"Johnson","Type":"Municipal Landfill","TonsFY2013":111444.63}},{"type":"Feature","geometry":{"type":"Point","coordinates":[-92.025175,41.181891]},"properties":{"Name":"Southeast Multi-County Sanitary Landfill","County":"Keokuk","Type":"Municipal Landfill","TonsFY2013":22149.9}},{"type":"Feature","geometry":{"type":"Point","coordinates":[-94.1925,43.18698]},"properties":{"Name":"Kossuth County Transfer Station","County":"Kossuth","Type":"Transfer Station","TonsFY2013":13487.5}},{"type":"Feature","geometry":{"type":"Point","coordinates":[-91.312858,40.652511]},"properties":{"Name":"Great River Regional Waste Authority","County":"Lee","Type":"Municipal Landfill","TonsFY2013":53109.58}},{"type":"Feature","geometry":{"type":"Point","coordinates":[-91.557383,42.0921]},"properties":{"Name":"Cedar Rapids/Linn County (Site #2-Marion) Solid Waste Agency","County":"Linn","Type":"Municipal Landfill","TonsFY2013":172524.94}},{"type":"Feature","geometry":{"type":"Point","coordinates":[-91.650222,41.962575]},"properties":{"Name":"Cedar Rapids/Linn County (Site #1) Soild Waste Agency","County":"Linn","Type":"Municipal Landfill","TonsFY2013":40134.63}},{"type":"Feature","geometry":{"type":"Point","coordinates":[-93.95279,41.3396]},"properties":{"Name":"South Central Iowa Sanitary Landfill","County":"Madison","Type":"Municipal Landfill","TonsFY2013":22737.84}},{"type":"Feature","geometry":{"type":"Point","coordinates":[-92.633288,41.212033]},"properties":{"Name":"Mahaska County Sanitary Landfill","County":"Mahaska","Type":"Municipal Landfill","TonsFY2013":56986.2}},{"type":"Feature","geometry":{"type":"Point","coordinates":[-92.94958,41.272709]},"properties":{"Name":"South Central Iowa Solid Waste Agency","County":"Marion","Type":"Municipal Landfill","TonsFY2013":58398.03}},{"type":"Feature","geometry":{"type":"Point","coordinates":[-92.987544,42.036231]},"properties":{"Name":"Marshall County Sanitary Landfill","County":"Marshall","Type":"Municipal Landfill","TonsFY2013":35658.76}},{"type":"Feature","geometry":{"type":"Point","coordinates":[-95.639,41.022141]},"properties":{"Name":"Loess Hills Regional Sanitary Landfill","County":"Mills","Type":"Municipal Landfill","TonsFY2013":151895.38}},{"type":"Feature","geometry":{"type":"Point","coordinates":[-92.56084,43.23746]},"properties":{"Name":"Floyd-Mitchell County Sanitary Landfill","County":"Mitchell","Type":"Municipal Landfill","TonsFY2013":20158.68}},{"type":"Feature","geometry":{"type":"Point","coordinates":[-95.15108,41.05706]},"properties":{"Name":"Montgomery County Sanitary Landfill","County":"Montgomery","Type":"Municipal Landfill","TonsFY2013":8770.03}},{"type":"Feature","geometry":{"type":"Point","coordinates":[-90.84324,41.510509]},"properties":{"Name":"Muscatine County Sanitary Landfill","County":"Muscatine","Type":"Municipal Landfill","TonsFY2013":550.03}},{"type":"Feature","geometry":{"type":"Point","coordinates":[-95.11759,40.752952]},"properties":{"Name":"Page County Sanitary Landfill","County":"Page","Type":"Municipal Landfill","TonsFY2013":12375.41}},{"type":"Feature","geometry":{"type":"Point","coordinates":[-94.75201,43.208649]},"properties":{"Name":"Northern Plains Sanitary Landfill","County":"Palo Alto","Type":"Municipal Landfill","TonsFY2013":10165.33}},{"type":"Feature","geometry":{"type":"Point","coordinates":[-93.347866,41.595878]},"properties":{"Name":"Metro Park East Sanitary Landfill","County":"Polk","Type":"Municipal Landfill","TonsFY2013":330973.64}},{"type":"Feature","geometry":{"type":"Point","coordinates":[-95.10361,42.4091]},"properties":{"Name":"Sac County Sanitary Landfill","County":"Sac","Type":"Municipal Landfill","TonsFY2013":5383.99}},{"type":"Feature","geometry":{"type":"Point","coordinates":[-90.679753,41.480138]},"properties":{"Name":"Scott Area Sanitary Landfill","County":"Scott","Type":"Municipal Landfill","TonsFY2013":128961.39}},{"type":"Feature","geometry":{"type":"Point","coordinates":[-95.894998,43.128991]},"properties":{"Name":"Northwest Iowa Area Sanitary Landfill","County":"Sioux","Type":"Municipal Landfill","TonsFY2013":59651.12}},{"type":"Feature","geometry":{"type":"Point","coordinates":[-92.56688,42.02737]},"properties":{"Name":"Tama County Sanitary Landfill","County":"Tama","Type":"Municipal Landfill","TonsFY2013":10784.6}},{"type":"Feature","geometry":{"type":"Point","coordinates":[-94.258662,41.044112]},"properties":{"Name":"Union County Transfer Station","County":"Union","Type":"Transfer Station","TonsFY2013":19589.83}},{"type":"Feature","geometry":{"type":"Point","coordinates":[-92.46904,41.08357]},"properties":{"Name":"Ottumwa-Wapello County Sanitary Landfill","County":"Wapello","Type":"Municipal Landfill","TonsFY2013":38643.8}},{"type":"Feature","geometry":{"type":"Point","coordinates":[-94.15491,42.49591]},"properties":{"Name":"North Central Iowa Regional Sanitary Landfill","County":"Webster","Type":"Municipal Landfill","TonsFY2013":67914.66}},{"type":"Feature","geometry":{"type":"Point","coordinates":[-93.56332,43.38639]},"properties":{"Name":"Central Disposal Landfill","County":"Winnebago","Type":"Municipal Landfill","TonsFY2013":83248.06}},{"type":"Feature","geometry":{"type":"Point","coordinates":[-91.67062,43.224041]},"properties":{"Name":"Winneshiek County Sanitary Landfill","County":"Winneshiek","Type":"Municipal Landfill","TonsFY2013":22898.78}},{"type":"Feature","geometry":{"type":"Point","coordinates":[-91.51184,43.42503]},"properties":{"Name":"Allamakee County Citizen Convenience Center","County":"Allamakee","Type":"Transfer Station","TonsFY2013":658.0}},{"type":"Feature","geometry":{"type":"Point","coordinates":[-94.92405,41.694431]},"properties":{"Name":"Audubon County Transfer Station","County":"Audubon","Type":"Transfer Station","TonsFY2013":2680.26}},{"type":"Feature","geometry":{"type":"Point","coordinates":[-92.44367,42.52468]},"properties":{"Name":"City of Cedar Falls Transfer Station","County":"Black Hawk","Type":"Transfer Station","TonsFY2013":12617.22}},{"type":"Feature","geometry":{"type":"Point","coordinates":[-92.31831,42.487122]},"properties":{"Name":"Cedar Valley Recycling & Transfer Company (Formerly Corkery)","County":"Black Hawk","Type":"Transfer Station","TonsFY2013":1504.8}},{"type":"Feature","geometry":{"type":"Point","coordinates":[-91.87978,42.47979]},"properties":{"Name":"Waste Management of Independence Transfer Station","County":"Buchanan","Type":"Transfer Station","TonsFY2013":7757.04}},{"type":"Feature","geometry":{"type":"Point","coordinates":[-92.72645,42.745232]},"properties":{"Name":"Butler County Transfer Station","County":"Butler","Type":"Transfer Station","TonsFY2013":5732.5}},{"type":"Feature","geometry":{"type":"Point","coordinates":[-91.13105,41.74258]},"properties":{"Name":"Cedar County Transfer Station","County":"Cedar","Type":"Transfer Station","TonsFY2013":12876.0}},{"type":"Feature","geometry":{"type":"Point","coordinates":[-95.18709,43.15699]},"properties":{"Name":"City of Spencer Transfer Station","County":"Clay","Type":"Transfer Station","TonsFY2013":10967.48}},{"type":"Feature","geometry":{"type":"Point","coordinates":[-95.37863,42.04282]},"properties":{"Name":"Crawford County Transfer Station","County":"Crawford","Type":"Transfer Station","TonsFY2013":11130.24}},{"type":"Feature","geometry":{"type":"Point","coordinates":[-91.98318,40.985229]},"properties":{"Name":"Waste Management of Iowa Stevers Sanitation","County":"Jefferson","Type":"Transfer Station","TonsFY2013":1117.38}},{"type":"Feature","geometry":{"type":"Point","coordinates":[-91.165587,42.497499]},"properties":{"Name":"Bi County Disposal Inc","County":"Delaware","Type":"Transfer Station","TonsFY2013":3161.6}},{"type":"Feature","geometry":{"type":"Point","coordinates":[-94.83409,43.394421]},"properties":{"Name":"Emmet County Transfer Station","County":"Emmet","Type":"Transfer Station","TonsFY2013":2531.9}},{"type":"Feature","geometry":{"type":"Point","coordinates":[-91.79095,42.820938]},"properties":{"Name":"Fayette County Solid Waste Transfer Station","County":"Fayette","Type":"Transfer Station","TonsFY2013":9070.3}},{"type":"Feature","geometry":{"type":"Point","coordinates":[-92.65108,43.079449]},"properties":{"Name":"Jendro Sanitation Services Inc.","County":"Floyd","Type":"Transfer Station","TonsFY2013":2635.87}},{"type":"Feature","geometry":{"type":"Point","coordinates":[-92.72701,43.04929]},"properties":{"Name":"Floyd County Rural Resident Solid Waste Collection Point","County":"Floyd","Type":"Transfer Station","TonsFY2013":583.36}},{"type":"Feature","geometry":{"type":"Point","coordinates":[-94.557584,41.666833]},"properties":{"Name":"Guthrie County Transfer Station","County":"Guthrie","Type":"Transfer Station","TonsFY2013":7056.7}},{"type":"Feature","geometry":{"type":"Point","coordinates":[-93.73859,42.41445]},"properties":{"Name":"Hamilton County Transfer Station","County":"Hamilton","Type":"Transfer Station","TonsFY2013":12319.89}},{"type":"Feature","geometry":{"type":"Point","coordinates":[-92.059854,41.524842]},"properties":{"Name":"Cox Sanitation and Recycling, Inc.","County":"Iowa","Type":"Transfer Station","TonsFY2013":3.0}},{"type":"Feature","geometry":{"type":"Point","coordinates":[-90.610232,42.19347]},"properties":{"Name":"Waste Authority of Jackson County Transfer Station","County":"Jackson","Type":"Transfer Station","TonsFY2013":4691.38}},{"type":"Feature","geometry":{"type":"Point","coordinates":[-91.97459,41.01777]},"properties":{"Name":"Connelly Recycling, Inc. / Fairfield CCC","County":"Jefferson","Type":"Transfer Station","TonsFY2013":25.0}},{"type":"Feature","geometry":{"type":"Point","coordinates":[-91.13398,42.125858]},"properties":{"Name":"Jones County Transfer Station","County":"Jones","Type":"Transfer Station","TonsFY2013":5015.39}},{"type":"Feature","geometry":{"type":"Point","coordinates":[-92.20568,41.309101]},"properties":{"Name":"Waste Management of Iowa  Sigourney","County":"Keokuk","Type":"Transfer Station","TonsFY2013":228.48}},{"type":"Feature","geometry":{"type":"Point","coordinates":[-91.410157,40.421106]},"properties":{"Name":"Great River Regional Waste Authority","County":"Lee","Type":"Transfer Station","TonsFY2013":24916.68}},{"type":"Feature","geometry":{"type":"Point","coordinates":[-91.67141,42.046841]},"properties":{"Name":"Waste Transfer Stations, LLC","County":"Linn","Type":"Transfer Station","TonsFY2013":18456.58}},{"type":"Feature","geometry":{"type":"Point","coordinates":[-91.19861,41.16943]},"properties":{"Name":"Louisa County Regional Solid Waste Agency","County":"Louisa","Type":"Transfer Station","TonsFY2013":5493.59}},{"type":"Feature","geometry":{"type":"Point","coordinates":[-92.85616,43.285011]},"properties":{"Name":"Mitchell County Recycling and Citizen Convenience Center","County":"Mitchell","Type":"Transfer Station","TonsFY2013":113.81}},{"type":"Feature","geometry":{"type":"Point","coordinates":[-95.921486,41.997795]},"properties":{"Name":"Monona County Transfer Station","County":"Monona","Type":"Transfer Station","TonsFY2013":4979.77}},{"type":"Feature","geometry":{"type":"Point","coordinates":[-91.08046,41.4072]},"properties":{"Name":"City of Muscatine Transfer Station","County":"Muscatine","Type":"Transfer Station","TonsFY2013":32345.5}},{"type":"Feature","geometry":{"type":"Point","coordinates":[-94.69807,43.15123]},"properties":{"Name":"Palo Alto County Transfer Station","County":"Palo Alto","Type":"Transfer Station","TonsFY2013":4640.0}},{"type":"Feature","geometry":{"type":"Point","coordinates":[-96.136674,42.836211]},"properties":{"Name":"Plymouth County Transfer Station","County":"Plymouth","Type":"Transfer Station","TonsFY2013":7956.4}},{"type":"Feature","geometry":{"type":"Point","coordinates":[-94.73845,42.731781]},"properties":{"Name":"Pocahontas County Transfer Station","County":"Pocahontas","Type":"Transfer Station","TonsFY2013":2897.19}},{"type":"Feature","geometry":{"type":"Point","coordinates":[-93.58188,41.636341]},"properties":{"Name":"Metro Transfer Station","County":"Polk","Type":"Transfer Station","TonsFY2013":181746.0}},{"type":"Feature","geometry":{"type":"Point","coordinates":[-93.58692,41.5864]},"properties":{"Name":"Waste Management of Iowa Transfer Station","County":"Polk","Type":"Transfer Station","TonsFY2013":5592.05}},{"type":"Feature","geometry":{"type":"Point","coordinates":[-95.37551,41.389309]},"properties":{"Name":"Pottawattamie County Transfer Station","County":"Pottawattamie","Type":"Transfer Station","TonsFY2013":949.77}},{"type":"Feature","geometry":{"type":"Point","coordinates":[-92.559419,41.747096]},"properties":{"Name":"Poweshiek Transfer Station","County":"Poweshiek","Type":"Transfer Station","TonsFY2013":14038.93}},{"type":"Feature","geometry":{"type":"Point","coordinates":[-95.353127,41.674116]},"properties":{"Name":"Shelby County Area Solid Waste Agency Transfer","County":"Shelby","Type":"Transfer Station","TonsFY2013":11639.04}},{"type":"Feature","geometry":{"type":"Point","coordinates":[-91.93841,40.768181]},"properties":{"Name":"Van Buren County Solid Waste Commission","County":"Van Buren","Type":"Transfer Station","TonsFY2013":182.48}},{"type":"Feature","geometry":{"type":"Point","coordinates":[-96.016153,42.383709]},"properties":{"Name":"Woodbury County Transfer Station","County":"Woodbury","Type":"Transfer Station","TonsFY2013":4799.6}},{"type":"Feature","geometry":{"type":"Point","coordinates":[-96.331332,42.518096]},"properties":{"Name":"City of Sioux City Citizens Convenience Center","County":"Woodbury","Type":"Transfer Station","TonsFY2013":7023.75}},{"type":"Feature","geometry":{"type":"Point","coordinates":[-93.69813,42.72227]},"properties":{"Name":"Wright County Transfer Station","County":"Wright","Type":"Transfer Station","TonsFY2013":7217.48}}]}